{"meta":{"code":200},"response":{"venues":[{"id":"4ac518cef964a520f9a520e3","name":"Trafalgar Square","contact":{},"location":{"address":"Trafalgar Sq.","lat":51.50798788644087,"lng":-0.12804865837097168,"distance":95,"postalCode":"WC2N 5DX","city":"London","state":"Greater London","country":"United Kingdom","cc":"GB"},"categories":[{"id":"4bf58dd8d48988d164941735","name":"Plaza","pluralName":"Plazas","shortName":"Plaza \/ Square","icon":{"prefix":"https:\/\/foursquare.com\/img\/categories_v2\/parks_outdoors\/plaza_","suffix":".png"},"primary":true}],"verified":false,"restricted":true,"stats":{"checkinsCount":34665,"usersCount":22023,"tipCount":164},"likes":{"count":0,"groups":[]},"specials":{"count":0,"items":[]},"hereNow":{"count":0,"groups":[]},"referralId":"v-1353051756"},{"id":"50718804e4b03e8cff0217aa","name":"London","contact":{},"location":{"address":"St. Wallington","lat":51.50733393145393,"lng":-0.1276842399040095,"distance":19,"city":"London","state":"England","country":"United Kingdom","cc":"GB"},"categories":[{"id":"4bf58dd8d48988d1df941735","name":"Bridge","pluralName":"Bridges","shortName":"Bridge","icon":{"prefix":"https:\/\/foursquare.com\/img\/categories_v2\/parks_outdoors\/bridge_","suffix":".png"},"primary":true}],"verified":false,"restricted":true,"stats":{"checkinsCount":86,"usersCount":75,"tipCount":3},"likes":{"count":0,"groups":[]},"specials":{"count":0,"items":[]},"hereNow":{"count":0,"groups":[]},"referralId":"v-1353051756"},{"id":"4afd61a6f964a520822722e3","name":"Caff√® Nero","contact":{"phone":"+442079307929","formattedPhone":"+44 20 7930 7929"},"location":{"address":"60-61 Trafalgar Sq.","lat":51.507610450720286,"lng":-0.12827612696829263,"distance":70,"postalCode":"WC2N 5DS","city":"London","country":"United Kingdom","cc":"GB"},"categories":[{"id":"4bf58dd8d48988d1e0931735","name":"Coffee Shop","pluralName":"Coffee Shops","shortName":"Coffee Shop","icon":{"prefix":"https:\/\/foursquare.com\/img\/categories_v2\/food\/coffeeshop_","suffix":".png"},"primary":true}],"verified":false,"restricted":true,"stats":{"checkinsCount":982,"usersCount":699,"tipCount":14},"url":"http:\/\/www.caffenero.com","likes":{"count":0,"groups":[]},"specials":{"count":0,"items":[]},"hereNow":{"count":0,"groups":[]},"referralId":"v-1353051756"},{"id":"4acf4a24f964a52003d320e3","name":"Pret A Manger","contact":{"phone":"+442079325350","formattedPhone":"+44 20 7932 5350","twitter":"pret"},"location":{"address":"62\/65 Trafalgar Square","lat":51.5072312638604,"lng":-0.128516510422833,"distance":70,"postalCode":"WC2N 5DS","city":"Trafalgar Square South, London","state":"UK","country":"United Kingdom","cc":"GB"},"categories":[{"id":"4bf58dd8d48988d1c5941735","name":"Sandwich Place","pluralName":"Sandwich Places","shortName":"Sandwiches","icon":{"prefix":"https:\/\/foursquare.com\/img\/categories_v2\/food\/sandwiches_","suffix":".png"},"primary":true}],"verified":true,"restricted":true,"stats":{"checkinsCount":791,"usersCount":665,"tipCount":13},"url":"http:\/\/www.Pret.com","likes":{"count":0,"groups":[]},"specials":{"count":0,"items":[]},"hereNow":{"count":0,"groups":[]},"referralId":"v-1353051756"},{"id":"4ac518e7f964a52061ab20e3","name":"Trafalgar Studios","contact":{"phone":"+448448717627","formattedPhone":"+44 844 871 7627","twitter":"a_t_g"},"location":{"address":"14 Whitehall","lat":51.506692396780124,"lng":-0.12748003005981445,"distance":56,"postalCode":"SW1A 2DY","city":"London","state":"Greater London","country":"United Kingdom","cc":"GB"},"categories":[{"id":"4bf58dd8d48988d137941735","name":"Theater","pluralName":"Theaters","shortName":"Theater","icon":{"prefix":"https:\/\/foursquare.com\/img\/categories_v2\/arts_entertainment\/performingarts_theater_","suffix":".png"},"primary":true}],"verified":true,"restricted":true,"stats":{"checkinsCount":720,"usersCount":552,"tipCount":2},"likes":{"count":0,"groups":[]},"specials":{"count":0,"items":[]},"hereNow":{"count":0,"groups":[]},"referralId":"v-1353051756"},{"id":"4ac518d0f964a520b9a620e3","name":"Whitehall","contact":{},"location":{"address":"Whitehall","lat":51.506365179647354,"lng":-0.12720108032226562,"distance":95,"postalCode":"SW1A 2HD","city":"London","state":"UK","country":"United Kingdom","cc":"GB"},"categories":[{"id":"4bf58dd8d48988d12d941735","name":"Monument \/ Landmark","pluralName":"Monuments \/ Landmarks","shortName":"Landmark","icon":{"prefix":"https:\/\/foursquare.com\/img\/categories_v2\/building\/government_monument_","suffix":".png"},"primary":true}],"verified":false,"restricted":true,"stats":{"checkinsCount":2183,"usersCount":925,"tipCount":5},"likes":{"count":0,"groups":[]},"specials":{"count":0,"items":[]},"hereNow":{"count":0,"groups":[]},"referralId":"v-1353051756"},{"id":"4bc54daa6a3e9c7496c8f548","name":"Club Quarters","contact":{},"location":{"address":"8 Northumberland Avenue","lat":51.50707381566487,"lng":-0.12616204067364703,"distance":93,"postalCode":"WC2N 5BY","city":"London","state":"Greater London","country":"United Kingdom","cc":"GB"},"categories":[{"id":"4bf58dd8d48988d1fa931735","name":"Hotel","pluralName":"Hotels","shortName":"Hotel","icon":{"prefix":"https:\/\/foursquare.com\/img\/categories_v2\/travel\/hotel_","suffix":".png"},"primary":true}],"verified":false,"restricted":true,"stats":{"checkinsCount":1412,"usersCount":523,"tipCount":10},"likes":{"count":0,"groups":[]},"specials":{"count":0,"items":[]},"hereNow":{"count":0,"groups":[]},"referralId":"v-1353051756"},{"id":"4ae9aca2f964a5209fb521e3","name":"The Lord Moon Of The Mall","contact":{"phone":"+442078397701","formattedPhone":"+44 20 7839 7701","twitter":"jdwtweet"},"location":{"address":"16 Whitehall","lat":51.50639189133809,"lng":-0.1272439956665039,"distance":91,"postalCode":"SW1A 2DY","city":"London","country":"United Kingdom","cc":"GB"},"categories":[{"id":"4bf58dd8d48988d11b941735","name":"Pub","pluralName":"Pubs","shortName":"Pub","icon":{"prefix":"https:\/\/foursquare.com\/img\/categories_v2\/nightlife\/pub_","suffix":".png"},"primary":true}],"verified":true,"restricted":true,"stats":{"checkinsCount":1118,"usersCount":853,"tipCount":11},"url":"http:\/\/www.jdwetherspoon.co.uk","likes":{"count":0,"groups":[]},"specials":{"count":0,"items":[]},"hereNow":{"count":0,"groups":[]},"referralId":"v-1353051756"},{"id":"4db86f120f2c8db892a3a655","name":"Pret A Manger","contact":{"phone":"+442079325216","formattedPhone":"+44 20 7932 5216","twitter":"pret"},"location":{"address":"1 Whitehall","lat":51.5070206984,"lng":-0.127156152427,"distance":31,"postalCode":"SW1A 2DD","city":"London","country":"United Kingdom","cc":"GB"},"categories":[{"id":"4bf58dd8d48988d1c5941735","name":"Sandwich Place","pluralName":"Sandwich Places","shortName":"Sandwiches","icon":{"prefix":"https:\/\/foursquare.com\/img\/categories_v2\/food\/sandwiches_","suffix":".png"},"primary":true}],"verified":true,"restricted":true,"stats":{"checkinsCount":130,"usersCount":76,"tipCount":2},"url":"http:\/\/www.Pret.com","likes":{"count":0,"groups":[]},"specials":{"count":0,"items":[]},"hereNow":{"count":0,"groups":[]},"referralId":"v-1353051756"},{"id":"502a2e4f582fb374022cafd0","name":"Yes Prime Minister","contact":{},"location":{"address":"Trafalgar Studios","crossStreet":"14 Whitehall","lat":51.50677920909441,"lng":-0.12756586074829102,"distance":47,"postalCode":"SW1A 2DY","city":"London","state":"London","country":"United Kingdom","cc":"GB"},"categories":[{"id":"4bf58dd8d48988d137941735","name":"Theater","pluralName":"Theaters","shortName":"Theater","icon":{"prefix":"https:\/\/foursquare.com\/img\/categories_v2\/arts_entertainment\/performingarts_theater_","suffix":".png"},"primary":true}],"verified":false,"restricted":true,"stats":{"checkinsCount":14,"usersCount":13,"tipCount":1},"likes":{"count":0,"groups":[]},"specials":{"count":0,"items":[]},"hereNow":{"count":0,"groups":[]},"referralId":"v-1353051756"},{"id":"4ae5c61ff964a520efa121e3","name":"Nelson's Column","contact":{},"location":{"address":"Trafalgar Square","lat":51.508190449999994,"lng":-0.12788236141204834,"distance":113,"city":"London","state":"UK","country":"United Kingdom","cc":"GB"},"categories":[{"id":"4bf58dd8d48988d12d941735","name":"Monument \/ Landmark","pluralName":"Monuments \/ Landmarks","shortName":"Landmark","icon":{"prefix":"https:\/\/foursquare.com\/img\/categories_v2\/building\/government_monument_","suffix":".png"},"primary":true}],"verified":false,"restricted":true,"stats":{"checkinsCount":2442,"usersCount":1691,"tipCount":8},"likes":{"count":0,"groups":[]},"specials":{"count":0,"items":[]},"hereNow":{"count":0,"groups":[]},"referralId":"v-1353051756"},{"id":"4b083cdbf964a520000723e3","name":"The Silver Cross","contact":{"phone":"+442035821996","formattedPhone":"+44 20 3582 1996"},"location":{"address":"33 Whitehall","lat":51.50657988055256,"lng":-0.1272899092589633,"distance":70,"postalCode":"SW1A 2BX","city":"London","state":"Greater London","country":"United Kingdom","cc":"GB"},"categories":[{"id":"4bf58dd8d48988d11b941735","name":"Pub","pluralName":"Pubs","shortName":"Pub","icon":{"prefix":"https:\/\/foursquare.com\/img\/categories_v2\/nightlife\/pub_","suffix":".png"},"primary":true}],"verified":false,"restricted":true,"stats":{"checkinsCount":660,"usersCount":574,"tipCount":8},"url":"http:\/\/www.taylor-walker.co.uk","likes":{"count":0,"groups":[]},"specials":{"count":0,"items":[]},"hereNow":{"count":0,"groups":[]},"referralId":"v-1353051756"},{"id":"4ac518cef964a52012a620e3","name":"Admiralty Arch","contact":{},"location":{"address":"Trafalgar Square","lat":51.506769192297355,"lng":-0.128689706325531,"distance":95,"postalCode":"WC2N 5DX","city":"London","state":"UK","country":"United Kingdom","cc":"GB"},"categories":[{"id":"4bf58dd8d48988d12d941735","name":"Monument \/ Landmark","pluralName":"Monuments \/ Landmarks","shortName":"Landmark","icon":{"prefix":"https:\/\/foursquare.com\/img\/categories_v2\/building\/government_monument_","suffix":".png"},"primary":true}],"verified":false,"restricted":true,"stats":{"checkinsCount":922,"usersCount":671,"tipCount":4},"likes":{"count":0,"groups":[]},"specials":{"count":0,"items":[]},"hereNow":{"count":0,"groups":[]},"referralId":"v-1353051756"},{"id":"5067196ce4b0d7d96b60bd31","name":"Mikhels Apartments","contact":{},"location":{"address":"Whitehall 25","lat":51.50690875696364,"lng":-0.12720177316622394,"distance":38,"city":"London","country":"United Kingdom","cc":"GB"},"categories":[{"id":"4d954b06a243a5684965b473","name":"Residential Building (Apartment \/ Condo)","pluralName":"Residential Buildings (Apartments \/ Condos)","shortName":"Apartment Building","icon":{"prefix":"https:\/\/foursquare.com\/img\/categories_v2\/building\/apartment_","suffix":".png"},"primary":true}],"verified":false,"restricted":true,"stats":{"checkinsCount":116,"usersCount":5,"tipCount":0},"likes":{"count":0,"groups":[]},"specials":{"count":0,"items":[]},"hereNow":{"count":0,"groups":[]},"referralId":"v-1353051756"},{"id":"4cfeaa7bdd5f548140ba53d7","name":"Watatsumi","contact":{"phone":"+442070368520","formattedPhone":"+44 20 7036 8520"},"location":{"address":"7 Northumberland Ave.","crossStreet":"Trafalgar Sq.","lat":51.50729941681028,"lng":-0.12640994847217307,"distance":76,"postalCode":"WC2N 5BY","city":"London","country":"United Kingdom","cc":"GB"},"categories":[{"id":"4bf58dd8d48988d1d2941735","name":"Sushi Restaurant","pluralName":"Sushi Restaurants","shortName":"Sushi","icon":{"prefix":"https:\/\/foursquare.com\/img\/categories_v2\/food\/sushi_","suffix":".png"},"primary":true}],"verified":false,"restricted":true,"stats":{"checkinsCount":191,"usersCount":155,"tipCount":5},"url":"http:\/\/watatsumi.co.uk\/","likes":{"count":0,"groups":[]},"reservations":{"url":"http:\/\/www.opentable.com\/single.aspx?rid=74971&ref=1040"},"specials":{"count":0,"items":[]},"hereNow":{"count":0,"groups":[]},"referralId":"v-1353051756"},{"id":"4bed5ed4e3562d7f81e0fef8","name":"Drummonds","contact":{},"location":{"lat":51.50733393145393,"lng":-0.1277270587061155,"distance":21,"country":"United Kingdom","cc":"GB"},"categories":[{"id":"4bf58dd8d48988d124941735","name":"Office","pluralName":"Offices","shortName":"Corporate \/ Office","icon":{"prefix":"https:\/\/foursquare.com\/img\/categories_v2\/building\/default_","suffix":".png"},"primary":true}],"verified":false,"restricted":true,"stats":{"checkinsCount":31,"usersCount":22,"tipCount":0},"likes":{"count":0,"groups":[]},"specials":{"count":0,"items":[]},"hereNow":{"count":0,"groups":[]},"referralId":"v-1353051756"},{"id":"4ffbfabfe4b0c6402b9e6c20","name":"Trafigar square","contact":{},"location":{"lat":51.50732940828793,"lng":-0.12670070132885633,"distance":57,"country":"United Kingdom","cc":"GB"},"categories":[{"id":"4deefb944765f83613cdba6e","name":"Historic Site","pluralName":"Historic Sites","shortName":"Historic Site","icon":{"prefix":"https:\/\/foursquare.com\/img\/categories_v2\/arts_entertainment\/historicsite_","suffix":".png"},"primary":true}],"verified":false,"restricted":true,"stats":{"checkinsCount":36,"usersCount":34,"tipCount":0},"likes":{"count":0,"groups":[]},"specials":{"count":0,"items":[]},"hereNow":{"count":0,"groups":[]},"referralId":"v-1353051756"},{"id":"5050a2aee4b0eacd3e195a46","name":"Tfl Bus 12","contact":{},"location":{"address":"Moving target!","lat":51.50744680583339,"lng":-0.12827565520329476,"distance":60,"city":"London","country":"United Kingdom","cc":"GB"},"categories":[{"id":"4bf58dd8d48988d12b951735","name":"Bus Line","pluralName":"Bus Lines","shortName":"Bus","icon":{"prefix":"https:\/\/foursquare.com\/img\/categories_v2\/travel\/busstation_","suffix":".png"},"primary":true}],"verified":false,"restricted":true,"stats":{"checkinsCount":55,"usersCount":20,"tipCount":1},"likes":{"count":0,"groups":[]},"specials":{"count":0,"items":[]},"hereNow":{"count":0,"groups":[]},"referralId":"v-1353051756"},{"id":"4d53d735a64560fca1b3b33a","name":"Charles I","contact":{},"location":{"address":"Trafalgar Square","lat":51.507460346127864,"lng":-0.127716064453125,"distance":32,"city":"London","state":"UK","country":"United Kingdom","cc":"GB"},"categories":[{"id":"4bf58dd8d48988d166941735","name":"Sculpture Garden","pluralName":"Sculpture Gardens","shortName":"Sculpture","icon":{"prefix":"https:\/\/foursquare.com\/img\/categories_v2\/parks_outdoors\/sculpture_","suffix":".png"},"primary":true}],"verified":false,"restricted":true,"stats":{"checkinsCount":25,"usersCount":24,"tipCount":2},"likes":{"count":0,"groups":[]},"specials":{"count":0,"items":[]},"hereNow":{"count":0,"groups":[]},"referralId":"v-1353051756"},{"id":"4b633f13f964a520446d2ae3","name":"Walkers of Whitehall","contact":{"phone":"+442079250090","formattedPhone":"+44 20 7925 0090"},"location":{"address":"15 Whitehall","lat":51.506694,"lng":-0.127018,"distance":65,"postalCode":"SW1A 2DD","city":"London","country":"United Kingdom","cc":"GB"},"categories":[{"id":"4bf58dd8d48988d1c4941735","name":"Restaurant","pluralName":"Restaurants","shortName":"Other - Food","icon":{"prefix":"https:\/\/foursquare.com\/img\/categories_v2\/food\/default_","suffix":".png"},"primary":true}],"verified":false,"restricted":true,"stats":{"checkinsCount":303,"usersCount":204,"tipCount":5},"likes":{"count":0,"groups":[]},"specials":{"count":0,"items":[]},"hereNow":{"count":0,"groups":[]},"referralId":"v-1353051756"},{"id":"4b1d6873f964a5201d1024e3","name":"Prezzo","contact":{"phone":"+442079304288","formattedPhone":"+44 20 7930 4288","twitter":"love_prezzo"},"location":{"address":"31-32 Northumberland Ave.","lat":51.507273368348315,"lng":-0.12638568878173828,"distance":77,"postalCode":"WC2N 5BW","city":"London","state":"Great London","country":"United Kingdom","cc":"GB"},"categories":[{"id":"4bf58dd8d48988d1ca941735","name":"Pizza Place","pluralName":"Pizza Places","shortName":"Pizza","icon":{"prefix":"https:\/\/foursquare.com\/img\/categories_v2\/food\/pizza_","suffix":".png"},"primary":true}],"verified":true,"restricted":true,"stats":{"checkinsCount":374,"usersCount":329,"tipCount":11},"url":"http:\/\/www.prezzorestaurants.co.uk\/","likes":{"count":0,"groups":[]},"specials":{"count":0,"items":[]},"hereNow":{"count":0,"groups":[]},"referralId":"v-1353051756"},{"id":"4ac518c2f964a5201aa420e3","name":"Albannach","contact":{"phone":"+442079300066","formattedPhone":"+44 20 7930 0066","twitter":"albannachwhisky"},"location":{"address":"66 Trafalgar Square","lat":51.50731343507994,"lng":-0.12889623641967773,"distance":97,"postalCode":"WC2N 5DS","city":"London","state":"Greater London","country":"United Kingdom","cc":"GB"},"categories":[{"id":"4bf58dd8d48988d1c4941735","name":"Restaurant","pluralName":"Restaurants","shortName":"Other - Food","icon":{"prefix":"https:\/\/foursquare.com\/img\/categories_v2\/food\/default_","suffix":".png"},"primary":true}],"verified":true,"restricted":true,"stats":{"checkinsCount":906,"usersCount":704,"tipCount":27},"url":"http:\/\/www.albannach.co.uk","likes":{"count":0,"groups":[]},"reservations":{"url":"http:\/\/www.opentable.com\/single.aspx?rid=48748&ref=1040"},"specials":{"count":1,"items":[{"id":"4def57c3185023e5dfaa3fe5","type":"frequency","message":"Free glass of house wine (red or white) when you check in at Albannach!","imageUrls":{"count":0},"description":"Unlocked every check-in","finePrint":"Available M-Su 12 - 6pm; M-Th 6 - 11pm. Limit one check in per day.","icon":"check-in","title":"Check-in Special","provider":"foursquare","redemption":"standard","likes":{"count":0,"groups":[]}}]},"hereNow":{"count":0,"groups":[]},"referralId":"v-1353051756"},{"id":"4b784f68f964a52040c42ee3","name":"The Old Shades","contact":{"phone":"+442078398577","formattedPhone":"+44 20 7839 8577"},"location":{"address":"37 Whitehall","lat":51.506478704224925,"lng":-0.12708842754364014,"distance":85,"postalCode":"SW1A 2BX","city":"Westminster","state":"Greater London","country":"United Kingdom","cc":"GB"},"categories":[{"id":"4bf58dd8d48988d11b941735","name":"Pub","pluralName":"Pubs","shortName":"Pub","icon":{"prefix":"https:\/\/foursquare.com\/img\/categories_v2\/nightlife\/pub_","suffix":".png"},"primary":true}],"verified":false,"restricted":true,"stats":{"checkinsCount":286,"usersCount":248,"tipCount":5},"likes":{"count":0,"groups":[]},"reservations":{"url":"http:\/\/www.opentable.com\/single.aspx?rid=82483&ref=1040"},"specials":{"count":0,"items":[]},"hereNow":{"count":0,"groups":[]},"referralId":"v-1353051756"},{"id":"4ca9af4bf47ea14392218121","name":"Tourism Malaysia","contact":{},"location":{"address":"Trafalgar square","lat":51.50748265325682,"lng":-0.12800365390092824,"distance":46,"city":"London","state":"Greater London","country":"United Kingdom","cc":"GB"},"categories":[{"id":"4bf58dd8d48988d1f6931735","name":"General Travel","pluralName":"General Travel","shortName":"Other - Travel","icon":{"prefix":"https:\/\/foursquare.com\/img\/categories_v2\/travel\/default_","suffix":".png"},"primary":true}],"verified":false,"restricted":true,"stats":{"checkinsCount":40,"usersCount":31,"tipCount":0},"likes":{"count":0,"groups":[]},"specials":{"count":0,"items":[]},"hereNow":{"count":0,"groups":[]},"referralId":"v-1353051756"},{"id":"4b28fc31f964a520f89624e3","name":"Regus","contact":{"phone":"+442078725500","formattedPhone":"+44 20 7872 5500","twitter":"regus_uk"},"location":{"address":"1 Northumberland Avenue, Trafalgar Square,","crossStreet":"Trafalgar Sq.","lat":51.5073595,"lng":-0.126771,"distance":53,"postalCode":"WC2N 5BW","city":"London","country":"United Kingdom","cc":"GB"},"categories":[{"id":"4bf58dd8d48988d1ff931735","name":"Convention Center","pluralName":"Convention Centers","shortName":"Convention Center","icon":{"prefix":"https:\/\/foursquare.com\/img\/categories_v2\/building\/conventioncenter_","suffix":".png"},"primary":true}],"verified":true,"restricted":true,"stats":{"checkinsCount":70,"usersCount":44,"tipCount":2},"url":"http:\/\/www.regus.co.uk\/locations\/office-space\/london-trafalgar-square","likes":{"count":0,"groups":[]},"specials":{"count":0,"items":[]},"hereNow":{"count":0,"groups":[]},"referralId":"v-1353051756"},{"id":"4b509ef0f964a520d42927e3","name":"TfL Bus 87","contact":{},"location":{"address":"Moving Target!","lat":51.507967853376,"lng":-0.12651443481445312,"distance":109,"city":"London","state":"Greater London","country":"United Kingdom","cc":"GB"},"categories":[{"id":"4bf58dd8d48988d12b951735","name":"Bus Line","pluralName":"Bus Lines","shortName":"Bus","icon":{"prefix":"https:\/\/foursquare.com\/img\/categories_v2\/travel\/busstation_","suffix":".png"},"primary":true}],"verified":false,"restricted":true,"stats":{"checkinsCount":608,"usersCount":136,"tipCount":7},"likes":{"count":0,"groups":[]},"specials":{"count":0,"items":[]},"hereNow":{"count":0,"groups":[]},"referralId":"v-1353051756"},{"id":"4af290c7f964a520eee721e3","name":"The Trafalgar London Hotel","contact":{"phone":"+442078702900","formattedPhone":"+44 20 7870 2900"},"location":{"address":"2 Spring Gardens","crossStreet":"Trafalger Square","lat":51.50753270121485,"lng":-0.1290502314372767,"distance":113,"postalCode":"SW1A 2TS","city":"London","state":"Greater London","country":"United Kingdom","cc":"GB"},"categories":[{"id":"4bf58dd8d48988d1fa931735","name":"Hotel","pluralName":"Hotels","shortName":"Hotel","icon":{"prefix":"https:\/\/foursquare.com\/img\/categories_v2\/travel\/hotel_","suffix":".png"},"primary":true}],"verified":true,"restricted":true,"stats":{"checkinsCount":877,"usersCount":484,"tipCount":9},"likes":{"count":0,"groups":[]},"specials":{"count":0,"items":[]},"hereNow":{"count":0,"groups":[]},"referralId":"v-1353051756"},{"id":"4aec417bf964a520b2c521e3","name":"Grand at Trafalgar Square","contact":{"phone":"+442078398877","formattedPhone":"+44 20 7839 8877"},"location":{"address":"8 Northumberland Ave.","lat":51.507259,"lng":-0.126212,"distance":89,"postalCode":"WC2N 5BY","city":"London","state":"Greater London","country":"United Kingdom","cc":"GB"},"categories":[{"id":"4bf58dd8d48988d1fa931735","name":"Hotel","pluralName":"Hotels","shortName":"Hotel","icon":{"prefix":"https:\/\/foursquare.com\/img\/categories_v2\/travel\/hotel_","suffix":".png"},"primary":true}],"verified":false,"restricted":true,"stats":{"checkinsCount":476,"usersCount":285,"tipCount":6},"url":"http:\/\/www.thegrandattrafalgarsquare.com","likes":{"count":0,"groups":[]},"specials":{"count":0,"items":[]},"hereNow":{"count":0,"groups":[]},"referralId":"v-1353051756"},{"id":"4f70aa8de4b0e6e004888519","name":"M.S Work","contact":{},"location":{"lat":51.506172,"lng":-0.127169,"distance":116,"country":"United Kingdom","cc":"GB"},"categories":[{"id":"4bf58dd8d48988d124941735","name":"Office","pluralName":"Offices","shortName":"Corporate \/ Office","icon":{"prefix":"https:\/\/foursquare.com\/img\/categories_v2\/building\/default_","suffix":".png"},"primary":true}],"verified":false,"restricted":true,"stats":{"checkinsCount":85,"usersCount":3,"tipCount":0},"likes":{"count":0,"groups":[]},"specials":{"count":0,"items":[]},"hereNow":{"count":0,"groups":[]},"referralId":"v-1353051756"},{"id":"4bbcabe2a0a0c9b6a3981a0f","name":"Grand Buildings","contact":{},"location":{"address":"1-3 Strand","lat":51.50762261900684,"lng":-0.1267752017033681,"distance":68,"postalCode":"Wc2n 5ej","city":"London","state":"Greater London","country":"United Kingdom","cc":"GB"},"categories":[{"id":"4bf58dd8d48988d124941735","name":"Office","pluralName":"Offices","shortName":"Corporate \/ Office","icon":{"prefix":"https:\/\/foursquare.com\/img\/categories_v2\/building\/default_","suffix":".png"},"primary":true}],"verified":false,"restricted":true,"stats":{"checkinsCount":39,"usersCount":18,"tipCount":0},"likes":{"count":0,"groups":[]},"specials":{"count":0,"items":[]},"hereNow":{"count":0,"groups":[]},"referralId":"v-1353051756"}]}}